City_ID,City,Lat,Lng,Max Temp,Humidity,Cloudiness,Wind Speed,Country,Date
0,puerto natales,-51.7236,-72.4875,6.05,75,43,3.93,CL,1682111513
1,kailua-kona,19.6406,-155.9956,28.61,76,40,5.14,US,1682111498
2,la ronge,55.1001,-105.2842,2.77,49,100,2.53,CA,1682111513
3,talnakh,69.4865,88.3972,-5.44,84,96,4.12,RU,1682111513
4,blackmans bay,-43.0167,147.3167,14.07,84,97,2.3,AU,1682111513
5,mathba,22.2855,89.9629,25.35,78,100,1.95,BD,1682111513
6,tinogasta,-28.0632,-67.5649,24.02,29,70,4.39,AR,1682111442
7,utrik,11.2278,169.8474,26.88,71,99,7.22,MH,1682111514
8,ilulissat,69.2167,-51.1,0.01,80,75,1.54,GL,1682111514
9,waitangi,-43.9535,-176.5597,16.57,92,100,3.58,NZ,1682111330
10,edinburgh of the seven seas,-37.0676,-12.3116,19.3,90,100,15.19,SH,1682111514
11,richfield,44.8833,-93.283,5.71,59,75,8.23,US,1682111514
12,orland,39.7474,-122.1964,27.64,43,79,5.3,US,1682111514
13,cabedelo,-6.9811,-34.8339,28.37,75,100,4.8,BR,1682111514
14,puerto ayora,-0.7393,-90.3518,28.08,88,71,3.58,EC,1682111514
15,derzhavinsk,51.1,66.3167,6.2,67,85,3.81,KZ,1682111514
16,port-aux-francais,-49.35,70.2167,4.99,63,66,6.37,TF,1682111514
17,palmer,42.1584,-72.3287,23.64,35,20,6.17,US,1682111514
18,hermanus,-34.4187,19.2345,9.89,63,100,1.32,ZA,1682111514
19,skanor med falsterbo,55.4,12.85,9.99,68,8,4.51,SE,1682111514
20,baturaja,-4.1333,104.1667,23.23,99,100,1.17,ID,1682111515
21,ust-nera,64.5667,143.2,-5.58,95,99,2.18,RU,1682111515
22,tottori,35.5,134.2333,9.63,57,1,5.07,JP,1682111515
23,bethel,41.3712,-73.414,21.68,51,0,6.69,US,1682111515
24,fale old settlement,-9.3852,-171.2468,28.85,74,18,5.95,TK,1682111515
25,port lincoln,-34.7333,135.8667,15.95,84,0,2.61,AU,1682111515
26,laihia,62.9761,22.0114,5.01,81,0,2.06,FI,1682111515
27,luanda,-8.8368,13.2343,26.0,94,75,0.0,AO,1682111515
28,nampula,-15.1165,39.2666,20.0,99,7,1.07,MZ,1682111515
29,bam,29.106,58.357,23.29,25,4,3.61,IR,1682111515
30,grytviken,-54.2811,-36.5092,2.39,65,100,3.3,GS,1682111515
31,ushuaia,-54.8,-68.3,4.81,75,40,11.83,AR,1682111515
32,georgetown,5.4112,100.3354,27.96,89,20,0.0,MY,1682111334
33,malvan,16.0667,73.4667,25.86,73,0,4.2,IN,1682111516
34,arvayheer,46.2639,102.775,-5.02,31,66,1.75,MN,1682111516
35,khanty-mansiysk,61.0042,69.0019,3.06,81,0,5.0,RU,1682111516
36,tshela,-4.9833,12.9333,22.38,100,100,0.1,CD,1682111516
37,vilyuysk,63.7553,121.6247,-6.56,97,100,1.46,RU,1682111516
38,tchintabaraden,15.8969,5.7985,31.7,11,0,3.48,NE,1682111516
39,mount pearl,47.5166,-52.7813,2.69,94,100,10.8,CA,1682111370
40,portland,45.5234,-122.6762,15.52,64,75,3.58,US,1682111516
41,lepsy,46.235,78.9456,4.43,58,3,2.42,KZ,1682111516
42,sao paulo de olivenca,-3.3783,-68.8725,24.59,93,100,2.05,BR,1682111516
43,udachny,66.4167,112.4,-16.53,100,100,1.74,RU,1682111516
44,hawaiian paradise park,19.5933,-154.9731,25.73,91,100,6.17,US,1682111516
45,trairi,-3.2778,-39.2689,26.08,81,54,3.66,BR,1682111500
46,iqaluit,63.7506,-68.5145,-1.15,86,100,5.66,CA,1682111517
47,hermosillo,29.0667,-110.9667,37.14,6,0,4.63,MX,1682111517
48,petropavlovsk-kamchatsky,53.0452,158.6483,2.33,70,75,4.0,RU,1682111260
49,vilyuchinsk,52.9306,158.4028,3.15,97,100,14.14,RU,1682111517
50,barah,13.7,30.3667,28.81,9,4,4.81,SD,1682111517
51,colonia,50.9333,6.95,12.2,87,93,2.06,DE,1682111240
52,papatowai,-46.5619,169.4708,12.01,83,90,3.22,NZ,1682111517
53,ponta delgada,37.7333,-25.6667,16.4,82,40,7.2,PT,1682111517
54,qaqortoq,60.7167,-46.0333,5.19,66,98,2.24,GL,1682111517
55,adamstown,-25.066,-130.1015,24.75,80,100,9.56,PN,1682111517
56,tiksi,71.6872,128.8694,-19.8,100,90,0.9,RU,1682111517
57,iskateley,67.6803,53.1512,-2.85,97,100,3.88,RU,1682111517
58,wailua homesteads,22.0669,-159.378,25.63,83,0,4.63,US,1682111517
59,coquimbo,-29.9533,-71.3436,19.85,63,0,5.14,CL,1682111518
60,yaren,-0.5472,166.916,28.33,73,12,5.45,NR,1682111518
61,arnprior,45.4334,-76.3494,17.54,62,97,3.99,CA,1682111518
62,san pedro,14.35,121.0167,28.57,85,40,1.54,PH,1682111420
63,vizinga,61.0749,50.1031,2.68,93,89,1.82,RU,1682111518
64,vlore,40.4667,19.4897,13.4,78,0,2.12,AL,1682111518
65,kerikeri,-35.2268,173.9474,20.51,97,100,0.45,NZ,1682111518
66,pizarro,4.9533,-77.366,27.86,74,67,3.48,CO,1682111518
67,margate,51.3813,1.3862,7.17,88,65,2.07,GB,1682111295
68,lazaro cardenas,17.9583,-102.2,29.04,58,39,6.14,MX,1682111518
69,ghat,24.9647,10.1728,28.35,11,86,2.87,LY,1682111518
70,bridgeport,41.167,-73.2048,20.6,62,0,8.23,US,1682111252
71,arraias,-12.9288,-46.9437,25.4,67,61,0.66,BR,1682111518
72,east london,-33.0153,27.9116,16.45,74,80,1.38,ZA,1682111519
73,whitehorse,60.7161,-135.0538,5.73,35,73,1.34,CA,1682111519
74,chernyshevskiy,63.0128,112.4714,-20.79,100,91,0.38,RU,1682111519
75,longyearbyen,78.2186,15.6401,-14.09,61,20,7.72,SJ,1682111519
76,bilibino,68.0546,166.4372,-4.39,66,10,0.95,RU,1682111519
77,flying fish cove,-10.4217,105.6791,27.3,77,100,7.05,CX,1682111519
78,howard springs,-12.497,131.047,24.95,92,5,2.71,AU,1682111519
79,vernon,50.2581,-119.2691,12.56,55,97,1.34,CA,1682111417
80,hamilton,39.1834,-84.5333,15.7,90,100,3.6,US,1682111384
81,sao jose da coroa grande,-8.8978,-35.1478,25.98,83,4,4.24,BR,1682111519
82,tura,25.5198,90.2201,21.73,74,100,0.4,IN,1682111519
83,newman,37.3138,-121.0208,26.05,42,15,4.02,US,1682111519
84,margaret river,-33.95,115.0667,13.35,92,11,4.24,AU,1682111515
85,hammerfest,70.6634,23.6821,-2.75,63,75,9.77,NO,1682111519
86,gizo,-8.103,156.8419,27.73,77,49,2.6,SB,1682111520
87,chakari,-18.0629,29.8925,19.38,57,99,1.82,ZW,1682111520
88,huejutla de reyes,21.1333,-98.4167,32.77,58,60,2.88,MX,1682111520
89,shenjiamen,29.9576,122.298,12.69,76,16,5.16,CN,1682111520
90,yellowknife,62.456,-114.3525,4.2,60,91,5.36,CA,1682111520
91,port mathurin,-19.6833,63.4167,26.01,78,19,7.78,MU,1682111520
92,albany,42.6001,-73.9662,25.35,34,13,2.24,US,1682111439
93,vorkuta,67.5,64.0,-6.21,97,97,2.87,RU,1682111520
94,enewetak,11.3474,162.3373,26.08,85,100,7.81,MH,1682111520
95,gaogou,34.0175,119.1886,9.28,45,77,3.8,CN,1682111520
96,cannonvale,-20.2833,148.7,23.66,80,76,8.91,AU,1682111520
97,punta arenas,-53.15,-70.9167,7.06,61,0,7.72,CL,1682111489
98,haiku-pauwela,20.9219,-156.3051,28.01,71,20,5.66,US,1682111521
99,coahuayana de hidalgo,18.7,-103.6583,31.34,46,3,3.77,MX,1682111521
100,hadibu,12.65,54.0333,27.73,72,62,3.72,YE,1682111521
101,kone,-21.0595,164.8658,25.38,85,11,1.32,NC,1682111521
102,watampone,-4.5386,120.3279,24.56,91,97,1.99,ID,1682111521
103,el calafate,-50.3408,-72.2768,6.64,54,61,4.43,AR,1682111521
104,constantia,44.1833,28.65,6.5,85,18,4.87,RO,1682111446
105,west bay,19.3667,-81.4167,28.36,75,75,1.03,KY,1682111521
106,egilsstadir,65.2653,-14.3948,-1.49,87,99,6.09,IS,1682111521
107,sile,41.1754,29.6133,12.37,74,12,1.89,TR,1682111521
108,richards bay,-28.783,32.0377,19.97,76,100,2.03,ZA,1682111521
109,ad darb,17.7229,42.2526,30.69,53,5,2.29,SA,1682111522
110,tolanaro,-25.0319,46.9987,22.61,84,0,1.8,MG,1682111522
111,nokha,27.6,73.4167,25.93,11,0,4.09,IN,1682111414
112,tanout,14.9709,8.8879,31.73,14,6,2.95,NE,1682111522
113,bechar,31.6167,-2.2167,20.78,33,42,10.82,DZ,1682111523
114,uturoa,-16.7333,-151.4333,28.19,78,86,7.39,PF,1682111523
115,rio grande,-32.035,-52.0986,20.06,71,94,6.26,BR,1682111523
116,nar'yan-mar,67.6713,53.087,-2.82,97,100,3.88,RU,1682111523
117,callao,-12.0667,-77.15,26.16,61,0,8.23,PE,1682111524
118,cabo san lucas,22.8909,-109.9124,32.61,24,75,5.14,MX,1682111333
119,demidov,55.2706,31.515,7.51,72,68,1.0,RU,1682111524
120,portales,34.1862,-103.3344,22.96,7,23,7.86,US,1682111299
121,dudinka,69.4058,86.1778,-5.21,85,100,6.73,RU,1682111525
122,choyr,46.3611,108.3611,-3.49,56,3,4.17,MN,1682111525
123,argenton-sur-creuse,46.59,1.5198,9.19,83,100,2.98,FR,1682111525
124,kingston,17.997,-76.7936,28.53,69,75,5.66,JM,1682111283
125,vadso,70.0744,29.7487,-1.51,80,75,3.6,NO,1682111525
126,kristiansund,63.1115,7.732,8.03,76,0,1.54,NO,1682111526
127,tralee,52.2704,-9.7026,8.27,95,59,2.7,IE,1682111526
128,kavaratti,10.5669,72.642,28.63,74,6,4.02,IN,1682111526
129,olonkinbyen,70.9221,-8.7187,-4.33,62,50,5.0,SJ,1682111527
130,nizhnesortymskiy,62.4397,71.7603,-0.3,98,99,2.71,RU,1682111527
131,gadzhiyevo,69.2551,33.3362,-2.37,95,100,3.24,RU,1682111527
132,lebu,-37.6167,-73.65,14.55,81,57,4.92,CL,1682111528
133,al jumum,21.6169,39.6981,30.77,38,100,0.31,SA,1682111528
134,invercargill,-46.4,168.35,11.68,82,91,0.89,NZ,1682111528
135,turek,52.0155,18.5005,9.23,64,42,2.65,PL,1682111529
136,manthani,18.65,79.6667,30.03,40,62,1.64,IN,1682111529
137,happy valley-goose bay,53.3168,-60.3315,3.3,73,91,2.19,CA,1682111529
138,bansgaon,26.5586,83.3481,25.92,38,54,2.81,IN,1682111529
139,sisimiut,66.9395,-53.6735,0.62,77,100,1.04,GL,1682111530
140,garcia,25.8167,-100.5833,34.65,42,30,3.94,MX,1682111530
141,mangrol,21.1167,70.1167,25.71,83,3,5.05,IN,1682111531
142,luderitz,-26.6481,15.1594,14.37,71,33,3.79,NA,1682111531
143,avarua,-21.2078,-159.775,27.03,74,40,3.6,CK,1682111531
144,saipan,15.1355,145.701,26.47,100,100,5.81,MP,1682111532
145,dhidhdhoo,6.8833,73.1,28.68,70,2,1.21,MV,1682111532
146,takoradi,4.8845,-1.7554,27.49,85,90,5.3,GH,1682111532
147,al mijlad,11.0333,27.7333,31.13,8,3,5.27,SD,1682111533
148,saint-francois,46.4154,3.9054,14.69,66,0,6.17,FR,1682111426
149,kodiak,57.79,-152.4072,11.73,32,0,5.14,US,1682111534
150,new norfolk,-42.7826,147.0587,14.72,77,100,1.61,AU,1682111535
151,al khums,32.6486,14.2619,17.45,89,13,6.15,LY,1682111535
152,umm kaddadah,13.6017,26.6876,29.08,10,0,5.5,SD,1682111535
153,college,64.8569,-147.8028,4.39,59,75,0.45,US,1682111535
154,sibiti,-3.6819,13.3499,20.99,98,100,1.19,CG,1682111536
155,brokopondo,4.75,-55.1667,26.24,89,98,4.22,SR,1682111537
156,nemuro,43.3236,145.575,3.74,67,25,8.21,JP,1682111270
157,cill airne,52.05,-9.5167,8.38,94,94,1.81,IE,1682111537
158,selma,36.5708,-119.6121,25.85,35,0,0.0,US,1682111537
159,nadym,65.5333,72.5167,-1.85,92,100,3.01,RU,1682111538
160,san julian,21.0167,-102.1667,30.97,9,36,5.78,MX,1682111538
161,oranjemund,-28.55,16.4333,12.68,77,67,3.66,NA,1682111538
162,sinabang,2.4803,96.3801,26.78,82,4,0.56,ID,1682111538
163,champerico,14.3,-91.9167,30.68,62,96,6.87,GT,1682111539
164,tamanrasset,22.785,5.5228,22.95,11,95,4.63,DZ,1682111539
165,vorgashor,67.5833,63.95,-7.26,98,96,2.72,RU,1682111539
166,ribeira grande,38.5167,-28.7,17.1,92,34,7.15,PT,1682111539
167,lihue,21.9789,-159.3672,25.97,79,0,4.63,US,1682111388
168,alofi,-19.0595,-169.9187,25.62,65,2,6.65,NU,1682111540
169,ola,59.5833,151.2833,0.15,74,55,8.1,RU,1682111540
170,weno,7.4515,151.8468,26.97,89,75,2.57,FM,1682111540
171,kapuskasing,49.4169,-82.4331,3.05,93,100,5.14,CA,1682111342
172,pauini,-7.7136,-66.9764,27.84,77,100,0.66,BR,1682111540
173,bredasdorp,-34.5322,20.0403,11.86,65,100,1.31,ZA,1682111541
174,dalandzadgad,43.5708,104.425,3.47,16,37,1.86,MN,1682111298
175,shingu,33.7333,135.9833,10.85,59,66,3.67,JP,1682111541
176,san antonio de pale,-1.4014,5.6325,27.77,72,100,6.37,GQ,1682111541
177,yeraliyev,43.2,51.65,13.16,74,100,6.97,KZ,1682111542
178,fortuna,40.5982,-124.1573,17.74,69,100,2.24,US,1682111542
179,arkhangel'sk,64.5401,40.5433,1.06,100,75,1.0,RU,1682111542
180,nassau village-ratliff,30.5111,-81.8093,27.99,63,75,7.2,US,1682111543
181,rio claro,-22.4114,-47.5614,17.12,76,0,2.35,BR,1682111537
182,geraldton,-28.7667,114.6,14.23,62,100,3.09,AU,1682111543
183,phek,25.6667,94.5,12.67,77,100,0.27,IN,1682111543
184,ishinomaki,38.4167,141.3,7.9,50,16,8.63,JP,1682111544
185,palmerston north,-40.35,175.6167,16.14,98,100,0.45,NZ,1682111544
186,kirensk,57.7853,108.1119,-6.12,97,100,1.56,RU,1682111544
187,sitka,57.0531,-135.33,13.94,38,75,4.63,US,1682111544
188,pimentel,-6.8367,-79.9342,28.16,61,20,4.12,PE,1682111544
189,siracusa,37.0881,15.2792,12.65,86,4,3.35,IT,1682111483
190,remire-montjoly,4.9167,-52.2667,27.02,89,40,1.03,GF,1682111545
191,okhotsk,59.3833,143.3,-1.62,84,96,3.68,RU,1682111545
192,hassi messaoud,31.6804,6.0729,22.84,42,0,8.26,DZ,1682111545
193,west island,-12.1568,96.8225,26.99,78,75,7.2,CC,1682111545
194,imbituba,-28.24,-48.6703,19.24,79,3,2.81,BR,1682111546
195,agat village,13.3886,144.6585,27.98,83,78,6.28,GU,1682111546
196,simanggang,1.2472,111.4528,22.77,99,58,0.3,MY,1682111546
197,port elizabeth,-33.918,25.5701,14.62,86,96,0.85,ZA,1682111546
198,lerwick,60.1545,-1.1494,6.0,84,6,2.96,GB,1682111546
199,khrenovoye,51.12,40.2889,7.17,91,100,5.69,RU,1682111546
200,hithadhoo,-0.6,73.0833,28.67,76,74,3.23,MV,1682111546
201,merizo village,13.2658,144.6691,27.77,87,93,6.49,GU,1682111547
202,lompoc,34.6391,-120.4579,30.99,81,11,6.71,US,1682111547
203,hotan,37.0997,79.9269,9.89,54,100,0.48,CN,1682111547
204,toliara,-23.35,43.6667,23.1,88,6,1.79,MG,1682111547
205,ouidah,6.3631,2.0851,28.18,80,100,6.13,BJ,1682111547
206,grande prairie,55.1667,-118.8027,8.53,33,15,3.12,CA,1682111489
207,kos,36.8933,27.2889,15.69,77,100,3.3,GR,1682111548
208,navoiy,40.0844,65.3792,15.71,33,0,6.17,UZ,1682111549
209,stanley,54.868,-1.6985,7.93,88,0,3.6,GB,1682111549
210,yeppoon,-23.1333,150.7333,17.88,76,61,6.71,AU,1682111549
211,coronel oviedo,-25.4167,-56.45,21.99,51,0,2.41,PY,1682111549
212,cooma,-36.2333,149.1333,5.98,90,0,0.62,AU,1682111550
213,juegang,32.3174,121.1855,10.83,64,4,5.31,CN,1682111550
214,pemangkat,1.1667,108.9667,25.19,87,82,2.11,ID,1682111550
215,anadyr,64.75,177.4833,-8.72,85,0,3.0,RU,1682111550
216,wanning,18.8003,110.3967,26.06,96,100,4.6,CN,1682111551
217,tambo,-14.8,-73.9167,7.68,64,92,5.11,PE,1682111551
218,beira,-19.8436,34.8389,24.05,100,0,1.03,MZ,1682111551
219,san lawrenz,36.0553,14.204,15.48,91,0,1.79,MT,1682111552
220,labrador city,52.9463,-66.9114,2.07,79,100,1.71,CA,1682111552
221,gwadar,25.1216,62.3254,26.32,73,1,3.79,PK,1682111552
222,yenisarbademli,37.7078,31.3864,9.25,70,30,1.0,TR,1682111552
223,fort bragg,35.139,-79.006,29.46,33,40,5.14,US,1682111553
224,severo-yeniseyskiy,60.3725,93.0408,-15.4,100,85,1.68,RU,1682111553
225,dakhla,23.6848,-15.958,19.19,80,20,4.35,EH,1682111553
226,nuuk,64.1835,-51.7216,-0.07,82,100,2.68,GL,1682111553
227,hardenberg,52.5758,6.6194,13.9,5,87,2.24,NL,1682111553
228,iquique,-20.2208,-70.1431,22.02,74,2,5.09,CL,1682111376
229,sur,22.5667,59.5289,28.16,60,11,4.97,OM,1682111554
230,souillac,-20.5167,57.5167,25.07,86,4,4.3,MU,1682111554
231,new plymouth,-39.0667,174.0833,19.2,1,100,7.24,NZ,1682111554
232,hailar,49.2,119.7,-5.41,40,0,3.47,CN,1682111555
233,keflavik,64.0049,-22.5624,4.24,81,40,8.23,IS,1682111555
234,nabire,-3.3667,135.4833,23.9,92,100,1.39,ID,1682111555
235,namanga,-2.5433,36.7905,20.48,79,100,2.05,KE,1682111556
236,bikenibeu village,1.3673,173.1241,29.98,74,40,4.63,KI,1682111556
237,la maddalena,41.2142,9.4083,11.03,75,37,1.91,IT,1682111556
238,tromso,69.6496,18.957,-0.99,80,75,4.12,NO,1682111556
239,mount gambier,-37.8333,140.7667,11.42,92,63,2.2,AU,1682111559
240,caraballeda,10.6112,-66.8522,29.37,89,100,1.85,VE,1682111560
241,jamestown,42.097,-79.2353,22.51,70,40,6.17,US,1682111439
242,charles city,43.0664,-92.6724,5.98,68,75,8.75,US,1682111560
243,bowen,-20.0167,148.2333,22.53,82,66,5.8,AU,1682111560
244,mahayag,8.1183,123.4455,23.96,93,100,0.49,PH,1682111560
245,gerash,27.6652,54.1371,21.08,36,1,1.04,IR,1682111560
246,debre werk',10.6667,38.1667,17.02,37,98,2.02,ET,1682111560
247,dunedin,-45.8742,170.5036,15.04,10,71,1.75,NZ,1682111272
248,holualoa,19.6228,-155.9522,26.54,76,40,5.14,US,1682111560
249,east ballina,-28.8667,153.5833,16.0,74,100,7.44,AU,1682111561
250,linden,6.0,-58.3,25.43,93,98,2.12,GY,1682111561
251,taulaga,-11.0553,-171.0883,28.87,75,33,6.83,AS,1682111561
252,afaahiti,-17.75,-149.2833,29.93,82,93,7.94,PF,1682111561
253,glace bay,46.1969,-59.957,7.65,80,29,4.92,CA,1682111561
254,huarmey,-10.0681,-78.1522,26.12,74,47,4.31,PE,1682111561
255,augusto correa,-1.0217,-46.635,25.86,88,16,2.4,BR,1682111561
256,san luis de la loma,17.2706,-100.8939,30.39,51,20,5.32,MX,1682111561
257,sattenapalle,16.4,80.1833,27.24,81,37,1.81,IN,1682111561
258,la passe,45.5549,-0.8967,15.13,85,100,4.68,FR,1682111561
259,port alfred,-33.5906,26.891,14.54,88,100,1.35,ZA,1682111561
260,klyuchi,52.2667,79.1667,-1.7,73,8,1.85,RU,1682111561
261,saldanha,-33.0117,17.9442,14.11,61,100,3.79,ZA,1682111561
262,road town,18.4167,-64.6167,28.05,65,40,3.09,VG,1682111562
263,crane,31.3974,-102.3501,24.84,8,0,5.99,US,1682111562
264,susuman,62.7833,148.1667,-9.56,94,94,1.66,RU,1682111562
265,alaghsas,17.0187,8.0168,31.99,11,0,4.75,NE,1682111562
266,kununurra,-15.7667,128.7333,25.99,50,100,3.6,AU,1682111562
267,beloyarskiy,63.7119,66.6722,-2.24,98,96,1.52,RU,1682111562
268,vertientes,21.2594,-78.1464,24.34,50,36,2.63,CU,1682111562
269,stephenville,32.2207,-98.2023,24.41,22,0,3.09,US,1682111562
270,casablanca,33.5928,-7.6192,16.12,74,100,0.67,MA,1682111550
271,alesund,62.4723,6.1549,9.39,81,0,4.63,NO,1682111562
272,fort st. john,56.2499,-120.8529,6.77,39,65,2.62,CA,1682111484
273,aasiaat,68.7098,-52.8699,-1.25,80,100,1.36,GL,1682111562
274,lycksele,64.5954,18.6735,1.93,75,82,1.54,SE,1682111562
275,turpan,42.9333,89.1667,15.78,14,99,0.89,CN,1682111562
276,magadan,59.5667,150.8,-0.05,75,49,8.95,RU,1682111518
277,freetown,8.484,-13.2299,26.82,80,100,4.79,SL,1682111563
278,yuzhno-kurilsk,44.0306,145.8556,1.85,95,87,11.97,RU,1682111563
279,isafjordur,66.0755,-23.124,-0.47,71,40,3.19,IS,1682111385
280,suntar,62.1444,117.6319,-13.22,97,98,1.07,RU,1682111563
281,slave lake,55.2834,-114.769,7.21,36,92,3.55,CA,1682111563
282,aykhal,66.0,111.5,-16.75,100,100,2.41,RU,1682111563
283,duluth,46.7833,-92.1066,3.37,84,100,6.17,US,1682111563
284,inhambane,-23.865,35.3833,22.37,79,91,1.04,MZ,1682111563
285,lai,9.3952,16.2989,31.5,41,100,5.25,TD,1682111563
286,thompson,55.7435,-97.8558,-0.18,89,100,3.91,CA,1682111563
287,kangaba,11.9333,-8.4167,34.56,19,99,0.46,ML,1682111563
288,windhoek,-22.5594,17.0832,17.28,63,100,2.45,NA,1682111563
289,kruisfontein,-34.0033,24.7314,12.71,68,100,2.11,ZA,1682111564
290,danielskuil,-28.1887,23.5395,10.49,16,1,4.21,ZA,1682111564
291,mweka,-4.85,21.5667,20.83,99,100,1.68,CD,1682111564
292,trutnov,50.561,15.9127,10.79,73,14,2.46,CZ,1682111564
293,conduaga,8.862,117.4893,25.71,85,84,1.84,PH,1682111564
294,atafu village,-8.5421,-172.5159,28.62,75,17,4.76,TK,1682111564
295,papao,-17.75,-149.55,30.82,84,78,9.74,PF,1682111564
296,al-hamdaniya,36.2715,43.3737,16.75,43,1,3.11,IQ,1682111564
297,alice springs,-23.7,133.8833,8.75,93,9,0.0,AU,1682111564
298,ulladulla,-35.35,150.4667,13.49,81,23,2.29,AU,1682111564
299,yung shue wan,22.2333,114.1167,23.15,89,100,7.69,HK,1682111564
300,enchanted hills,35.3368,-106.593,20.03,17,50,6.71,US,1682111564
301,perstorp,56.1383,13.3948,7.68,75,4,0.0,SE,1682111565
302,katsuren-haebaru,26.3369,127.8719,22.01,94,100,4.63,JP,1682111565
303,chonchi,-42.6128,-73.8092,13.56,85,78,0.75,CL,1682111565
304,forked river,39.8398,-74.1901,21.19,78,92,1.79,US,1682111523
305,tantoyuca,21.35,-98.2333,33.97,51,63,3.07,MX,1682111565
306,tazacorte,28.629,-17.9293,20.54,93,20,2.24,ES,1682111565
307,san patricio,28.017,-97.5169,26.97,65,51,7.95,US,1682111565
308,saint-philippe,-21.3585,55.7679,24.77,81,38,4.23,RE,1682111565
309,bandipura,34.4167,74.65,6.51,81,93,2.24,IN,1682111565
310,smithers,54.7804,-127.1743,7.83,66,100,1.91,CA,1682111565
311,mount isa,-20.7333,139.5,20.87,40,0,4.12,AU,1682111565
312,linxia chengguanzhen,35.6003,103.2064,3.69,76,100,1.26,CN,1682111565
313,dzhambeyty,50.2536,52.595,12.23,67,100,9.14,KZ,1682111565
314,mampong,7.0627,-1.4001,24.78,84,89,1.31,GH,1682111566
315,howrah,22.5892,88.3103,30.0,48,40,2.06,IN,1682111566
316,arraial do cabo,-22.9661,-42.0278,22.92,73,0,1.54,BR,1682111365
317,polyarnyy,69.1989,33.4478,-2.1,95,100,3.06,RU,1682111566
318,lorengau,-2.0226,147.2712,27.32,78,53,1.39,PG,1682111566
319,carutapera,-1.195,-46.02,26.5,85,10,3.83,BR,1682111566
320,narvik,68.4384,17.4272,1.88,94,100,3.81,NO,1682111566
321,el rama,12.1596,-84.2195,30.81,54,93,4.04,NI,1682111566
322,puerto baquerizo moreno,-0.9,-89.6,27.55,83,40,3.09,EC,1682111545
323,taoudenni,22.6783,-3.9836,28.12,7,60,4.12,ML,1682111566
324,touros,-5.1989,-35.4608,26.52,76,96,4.99,BR,1682111322
325,port hedland,-20.3167,118.5667,23.03,40,99,4.12,AU,1682111566
326,mosfellsbaer,64.1667,-21.7,4.01,70,16,4.23,IS,1682111566
327,belyy yar,53.6039,91.3903,-8.06,86,85,1.0,RU,1682111566
328,lindi,-10.0,39.7167,23.41,98,92,2.12,TZ,1682111566
329,songjianghe,42.1859,127.479,-3.07,35,91,1.83,CN,1682111567
330,krasnovishersk,60.4078,57.082,3.52,90,100,1.4,RU,1682111463
331,al jaradiyah,16.5795,42.9124,32.37,51,55,2.32,SA,1682111567
332,kudat,6.8837,116.8477,26.14,83,41,3.56,MY,1682111567
333,kudymkar,59.0173,54.656,5.09,69,100,1.4,RU,1682111567
334,vila velha,-20.3297,-40.2925,23.97,79,100,3.6,BR,1682111567
335,shanhecun,44.7,127.2,-0.17,34,4,1.73,CN,1682111567
336,faya-largeau,17.9257,19.1043,30.93,11,0,1.95,TD,1682111567
337,aldan,58.6031,125.3894,-9.77,97,99,1.21,RU,1682111567
338,mejit,10.2753,170.8646,26.82,72,99,7.01,MH,1682111567
339,beawar,26.1,74.3167,24.49,19,6,3.39,IN,1682111567
340,lensk,60.7253,114.9278,-9.03,95,26,1.3,RU,1682111567
341,nishinoomote,30.7333,131.0,19.26,84,17,11.17,JP,1682111567
342,kaspiyskiy,45.3929,47.3707,13.54,73,61,4.95,RU,1682111567
343,manokwari,-0.8667,134.0833,24.61,92,100,2.72,ID,1682111568
344,porto novo,6.4965,2.6036,27.98,80,100,4.31,BJ,1682111568
345,bel ombre,-4.6167,55.4167,28.45,74,92,3.33,SC,1682111568
346,marquette,46.5333,-87.6335,9.35,48,86,3.58,US,1682111568
347,alpine,32.835,-116.7664,30.5,20,0,3.13,US,1682111538
348,mandal,25.45,74.5667,25.03,19,96,3.55,IN,1682111568
349,oriximina,-1.7656,-55.8661,28.31,80,95,0.78,BR,1682111568
350,megion,61.0296,76.1136,4.01,93,96,4.02,RU,1682111568
351,broome,42.2506,-75.833,29.21,31,20,6.17,US,1682111568
352,carnarvon,-24.8667,113.6333,22.14,41,0,4.6,AU,1682111568
353,puerto gaitan,4.3133,-72.0816,28.61,67,100,5.7,CO,1682111568
354,berezovyy,51.6667,135.7,-1.2,92,100,1.58,RU,1682111568
355,birobidzhan,48.8,132.95,1.35,75,88,2.15,RU,1682111568
356,ocean shores,46.9737,-124.1563,12.2,79,100,5.14,US,1682111569
357,st. john's,47.5649,-52.7093,3.15,94,100,10.8,CA,1682111284
358,khandyga,62.6667,135.6,-4.44,92,100,0.57,RU,1682111569
359,kiunga,-6.1219,141.2906,22.75,100,97,0.42,PG,1682111569
360,rahon,31.05,76.1167,18.19,45,79,3.42,IN,1682111569
361,bayan,46.0833,127.4,0.14,52,0,3.13,CN,1682111569
362,karratha,-20.7377,116.8463,23.97,41,100,5.13,AU,1682111569
363,masterton,-40.9597,175.6575,15.02,99,100,0.49,NZ,1682111569
364,scarborough,54.2797,-0.4044,7.96,92,100,2.68,GB,1682111437
365,mapimi,25.8167,-103.85,30.1,6,50,3.75,MX,1682111569
366,robore,-18.3333,-59.75,25.25,60,0,1.22,BO,1682111569
367,yantongshan,43.2919,126.0094,1.47,23,99,0.45,CN,1682111569
368,paita,-5.0892,-81.1144,26.39,80,100,3.55,PE,1682111570
369,dryden,49.7833,-92.7503,-0.84,74,100,7.72,CA,1682111570
370,tagab,34.855,69.6492,12.98,32,20,2.79,AF,1682111570
371,yamada,39.4667,141.95,6.23,53,18,2.14,JP,1682111570
372,coruripe,-10.1256,-36.1756,26.16,79,1,4.53,BR,1682111570
373,zeya,53.75,127.2667,-2.09,58,100,3.54,RU,1682111570
374,thunder bay,48.4001,-89.3168,1.92,99,100,1.8,CA,1682111570
375,harper,4.375,-7.7169,27.72,81,100,5.25,LR,1682111298
376,brookings,44.3114,-96.7984,3.43,70,100,8.75,US,1682111336
377,trincomalee,8.5711,81.2335,26.77,82,8,3.17,LK,1682111570
378,badger,64.8,-147.5333,4.34,58,75,0.45,US,1682111570
379,kirakira,-10.4544,161.9205,27.87,81,17,2.5,SB,1682111570
380,zouerate,22.7187,-12.4521,26.0,17,69,3.86,MR,1682111570
381,fort mcmurray,56.7268,-111.381,10.44,24,10,1.77,CA,1682111570
382,jayapura,-2.5333,140.7,24.66,90,99,1.47,ID,1682111570
383,guerrero negro,27.9769,-114.0611,28.12,20,0,5.88,MX,1682111570
384,vung tau,10.346,107.0843,28.23,82,93,3.65,VN,1682111571
385,wenchang,30.904,118.4887,11.16,63,74,4.58,CN,1682111571
386,spinetta marengo,44.8862,8.6829,14.18,1,100,1.48,IT,1682111571
387,abeche,13.8292,20.8324,30.64,14,3,2.4,TD,1682111571
388,port moresby,-9.4431,147.1797,24.62,90,100,1.64,PG,1682111571
389,minas de marcona,-15.2119,-75.1103,19.77,70,28,6.33,PE,1682111571
390,barranca,-10.75,-77.7667,24.85,73,68,4.12,PE,1682111571
391,xiantao,30.3833,113.4,13.61,61,100,7.64,CN,1682111571
392,rio preto da eva,-2.6994,-59.6997,28.8,78,96,0.64,BR,1682111571
393,badr hunayn,23.7829,38.7905,29.49,36,0,0.53,SA,1682111571
394,labasa,-16.4167,179.3833,26.93,80,29,3.66,FJ,1682111571
395,mar del plata,-38.0023,-57.5575,18.3,61,0,4.12,AR,1682111571
396,mandalgovi,45.7625,106.2708,-3.12,30,41,3.87,MN,1682111572
397,broken hill,-31.95,141.4333,12.17,76,0,3.98,AU,1682111572
398,yazihan,38.5947,38.18,7.15,100,40,1.03,TR,1682111572
399,corinto,37.9407,22.9573,16.05,82,100,1.29,GR,1682111572
400,princeville,45.7668,-61.2985,9.06,82,100,7.2,CA,1682111572
401,mahriz,31.5917,54.4318,20.28,36,34,3.17,IR,1682111572
402,ardakan,32.31,54.0175,21.36,31,1,6.89,IR,1682111572
403,saint-felicien,48.6501,-72.4491,5.12,65,100,2.44,CA,1682111480
404,hilo,19.7297,-155.09,29.04,86,100,6.17,US,1682111530
405,safotu,-13.4513,-172.4018,28.63,74,86,3.94,WS,1682111572
406,darnah,32.767,22.6367,18.88,59,99,9.86,LY,1682111572
407,nova sintra,14.8667,-24.7167,20.07,75,7,6.79,CV,1682111572
408,novodvinsk,64.4165,40.8122,0.86,99,100,1.05,RU,1682111572
409,mugia,43.1041,-9.2179,12.73,83,2,6.76,ES,1682111572
410,mossel bay,-34.1831,22.146,11.96,65,100,4.18,ZA,1682111572
411,englewood,39.6478,-104.9878,11.33,23,75,3.09,US,1682111573
412,ambovombe,-25.1667,46.0833,21.57,89,0,2.22,MG,1682111573
413,luau,-10.7073,22.2247,19.78,93,100,0.6,AO,1682111573
414,kenora,49.8167,-94.4337,-1.79,79,100,7.15,CA,1682111573
415,mogadishu,2.0371,45.3438,28.97,72,100,7.5,SO,1682111335
416,rongelap,11.1635,166.8941,26.88,77,100,8.78,MH,1682111573
417,forster,-32.1667,152.5167,15.64,91,100,3.7,AU,1682111573
418,ulety,51.3572,112.4849,-9.03,59,4,1.04,RU,1682111573
419,san rafael del yuma,18.4299,-68.6739,28.11,61,63,3.14,DO,1682111573
420,tocopilla,-22.092,-70.1979,21.88,66,18,3.02,CL,1682111573
421,ciudad victoria,23.7333,-99.1333,29.49,58,75,2.06,MX,1682111482
422,argo,37.6333,22.7333,15.99,83,94,0.86,GR,1682111361
423,port-cartier,50.0334,-66.8654,4.47,85,100,2.08,CA,1682111573
424,midlothian,32.4824,-96.9945,25.48,32,0,3.13,US,1682111499
425,puerto madero,14.7208,-92.4215,33.11,62,20,8.75,MX,1682111573
426,lamont,35.2597,-118.9143,27.26,33,18,2.25,US,1682111574
427,buri ram,14.9943,103.1039,30.45,54,0,3.34,TH,1682111574
428,khost,33.3395,69.9204,15.0,71,17,1.42,AF,1682111574
429,port erin,54.0849,-4.751,9.93,87,75,4.63,IM,1682111574
430,saint-pierre,-21.3393,55.4781,24.82,73,75,2.06,RE,1682111574
431,vikhorevka,56.1201,101.1636,-3.23,97,100,1.3,RU,1682111574
432,mombetsu,44.3525,143.3525,3.12,76,52,8.47,JP,1682111574
433,bergerac,44.8333,0.5,19.12,63,100,5.14,FR,1682111374
434,tindouf,27.6711,-8.1474,19.19,33,0,9.0,DZ,1682111574
435,haugesund,59.4138,5.268,9.67,87,10,3.6,NO,1682111574
436,pangody,65.85,74.4859,-1.11,99,100,3.1,RU,1682111574
437,kolonia,50.9333,6.95,12.2,87,93,2.06,DE,1682111307
438,chos malal,-37.3781,-70.2709,19.9,30,99,4.01,AR,1682111574
439,fada,9.5667,8.3,22.5,75,100,1.2,NG,1682111575
440,lingdong,46.5669,131.1453,0.59,60,8,4.12,CN,1682111575
441,olyokminsk,60.3736,120.4264,-8.49,94,88,1.12,RU,1682111575
442,zhaqsy,51.9083,67.3133,3.53,80,85,3.83,KZ,1682111575
443,pont rouge,48.8833,-72.0825,6.73,57,100,3.21,CA,1682111575
444,timimoun,29.2639,0.231,27.12,18,0,4.6,DZ,1682111575
445,malango,-2.9627,119.9001,19.76,98,98,0.74,ID,1682111575
446,andrelandia,-21.7397,-44.3092,14.32,89,36,2.75,BR,1682111575
447,nikol'sk,53.7189,46.0712,6.78,88,100,3.79,RU,1682111575
448,ambah,26.7075,78.2261,26.01,29,13,3.11,IN,1682111575
449,osakarovka,50.565,72.5692,-2.63,78,6,1.86,KZ,1682111575
450,palera,25.0167,79.2333,26.69,23,33,2.53,IN,1682111575
451,shalqar,47.8333,59.6,13.98,27,100,7.22,KZ,1682111576
452,eastham,41.8301,-69.9739,13.3,71,0,5.14,US,1682111576
453,tenkodogo,11.78,-0.3697,35.69,17,46,1.94,BF,1682111576
454,kibi,6.1649,-0.5538,23.18,96,100,1.53,GH,1682111576
455,budenheim,50.0167,8.1667,12.92,84,20,0.89,DE,1682111576
456,francistown,-21.17,27.5079,20.56,29,99,3.57,BW,1682111576
457,tosontsengel,48.7567,98.2839,-6.55,41,1,0.88,MN,1682111576
458,port saint john's,-31.6229,29.5448,16.58,67,44,1.91,ZA,1682111576
459,raghunathpur,23.55,86.6667,26.52,39,99,0.85,IN,1682111576
460,tsiombe,-25.3,45.4833,21.18,87,0,1.45,MG,1682111576
461,vostochnyy,55.8167,37.8667,11.17,52,25,3.16,RU,1682111576
462,daman,20.4167,72.85,26.62,70,0,2.83,IN,1682111577
463,mitu,1.1983,-70.1733,26.29,74,98,1.94,CO,1682111577
464,bhongaon,27.25,79.1833,26.39,31,16,1.3,IN,1682111577
465,chippewa falls,44.9369,-91.3929,6.43,69,100,3.6,US,1682111577
466,jwaneng,-24.6004,24.7303,19.09,41,100,2.02,BW,1682111577
467,zarzis,33.504,11.1122,17.1,87,71,9.03,TN,1682111577
468,aripuana,-9.1667,-60.6333,26.4,94,98,0.6,BR,1682111577
469,acarau,-2.8856,-40.12,26.26,84,17,4.6,BR,1682111577
470,barra de santo antonio,-9.4047,-35.5072,26.6,82,18,4.61,BR,1682111307
471,nenjiang,49.1833,125.2167,-2.67,63,4,3.22,CN,1682111577
472,hampton bays,40.869,-72.5176,16.11,74,0,5.66,US,1682111577
473,nogliki,51.8333,143.1667,-0.41,97,100,8.15,RU,1682111577
474,cooper's town,26.8667,-77.5167,23.8,74,9,5.6,BS,1682111577
475,ar ruways,24.1103,52.7306,25.54,52,72,2.96,AE,1682111577
476,arno,60.1167,18.6333,6.11,76,18,1.08,SE,1682111578
477,benguela,-12.5763,13.4055,25.8,82,100,1.17,AO,1682111578
478,itacoatiara,-3.1431,-58.4442,28.1,82,90,1.34,BR,1682111578
479,nagqu,31.5,92.0,-0.92,67,100,3.94,CN,1682111578
480,lata,40.1629,-8.3327,14.34,97,77,0.51,PT,1682111578
481,pachino,36.7186,15.0907,13.7,87,1,5.89,IT,1682111578
482,betio village,1.358,172.9211,30.02,78,72,3.85,KI,1682111578
483,zhezqazghan,47.7833,67.7667,9.04,38,46,2.33,KZ,1682111578
484,asau,46.4333,26.4,7.38,88,71,2.1,RO,1682111578
485,aksu,41.1231,80.2644,11.92,42,87,2.91,CN,1682111578
486,pokaran,26.9167,71.9167,26.51,10,20,2.67,IN,1682111578
487,sandnessjoen,66.0217,12.6316,6.29,93,75,3.09,NO,1682111578
488,glenpool,35.9554,-96.0089,22.04,22,75,3.09,US,1682111579
489,rio branco,-9.9747,-67.81,27.34,78,75,1.54,BR,1682111579
490,jumla,29.2747,82.1838,3.46,88,33,2.42,NP,1682111579
491,le port,-20.9373,55.2919,25.0,91,5,4.07,RE,1682111579
492,menongue,-14.6585,17.691,16.32,96,98,2.03,AO,1682111579
493,fiche,9.8,38.7333,12.14,74,77,1.89,ET,1682111579
494,roma,43.2128,-75.4557,28.26,38,20,4.12,US,1682111413
495,chibougamau,49.9168,-74.3659,4.79,52,100,6.17,CA,1682111579
496,aral,40.5156,81.2636,12.26,30,77,2.9,CN,1682111579
497,adi keyh,14.8444,39.3772,16.89,66,12,1.28,ER,1682111579
498,praia da vitoria,38.7333,-27.0667,16.06,87,60,8.48,PT,1682111580
499,urangan,-25.3,152.9,21.86,76,91,9.04,AU,1682111580
500,natal,-5.795,-35.2094,27.36,74,20,3.09,BR,1682111413
501,necochea,-38.5473,-58.7368,19.16,42,100,5.6,AR,1682111580
502,srivardhan,18.0333,73.0167,25.36,75,0,3.47,IN,1682111581
503,zakamensk,50.3741,103.2863,-5.71,87,99,0.96,RU,1682111582
504,letterkenny,54.95,-7.7333,12.94,69,12,4.66,IE,1682111582
505,cherdyn',60.403,56.4787,3.77,92,100,1.44,RU,1682111583
506,andalusia,31.3085,-86.4833,27.53,58,0,3.09,US,1682111583
507,kimbe,-5.5502,150.1429,25.08,91,99,1.69,PG,1682111583
508,tayoltita,24.0833,-105.9333,32.49,16,99,4.08,MX,1682111583
509,jiexiu,37.0244,111.9125,1.75,99,100,0.62,CN,1682111584
510,tarakan,3.3,117.6333,26.54,79,71,1.25,ID,1682111584
511,n'zeto,-7.2312,12.8666,25.58,87,96,0.91,AO,1682111584
512,kandahar,31.0,65.75,18.11,11,0,1.38,AF,1682111585
513,mil'kovo,55.6078,37.7956,11.3,71,17,3.78,RU,1682111585
514,kralendijk,12.15,-68.2667,27.99,78,75,7.2,BQ,1682111586
515,nadi,-17.8,177.4167,28.0,69,40,5.14,FJ,1682111579
516,bayanhongor,46.7167,100.1167,-3.34,22,100,1.01,MN,1682111586
517,houlton,46.1262,-67.8403,13.23,35,0,3.09,US,1682111586
518,mendaha,-1.0333,103.5833,23.93,96,100,1.35,ID,1682111586
519,hovd,48.0056,91.6419,-3.43,33,0,0.97,MN,1682111587
520,flin flon,54.7682,-101.865,2.34,65,86,4.76,CA,1682111587
521,bull savanna,17.8868,-77.5902,25.71,70,26,1.88,JM,1682111587
522,wenling,28.3669,121.36,12.91,75,70,3.12,CN,1682111588
523,sechura,-5.5569,-80.8222,27.5,72,99,4.17,PE,1682111588
524,manta,-0.95,-80.7333,29.88,66,40,3.09,EC,1682111400
525,kamloops,50.6665,-120.3192,11.43,49,92,0.45,CA,1682111579
526,singaraja,-8.112,115.0882,26.24,84,67,1.18,ID,1682111588
527,dzuunharaa,48.8523,106.4579,-4.1,39,46,1.03,MN,1682111298
528,as sulayyil,20.4607,45.5779,23.81,58,98,4.24,SA,1682111589
529,brisas de zicatela,15.8369,-97.0419,30.29,70,20,6.17,MX,1682111589
530,bargaal,11.2864,51.0773,27.48,76,83,2.96,SO,1682111590
531,porbandar,21.6422,69.6093,25.88,83,4,4.56,IN,1682111590
532,yatou,37.15,122.3833,10.22,43,100,6.97,CN,1682111590
533,terenozek,45.05,64.9833,12.08,21,20,7.09,KZ,1682111591
534,sydney mines,46.2367,-60.2177,7.78,78,29,5.36,CA,1682111591
535,awjilah,29.1081,21.2869,25.54,21,100,7.45,LY,1682111591
536,bonthe,7.5264,-12.505,27.26,76,100,4.81,SL,1682111591
537,kapa'a,22.0752,-159.319,26.38,83,0,4.63,US,1682111486
538,murghob,38.1702,73.9667,-9.13,56,98,2.83,TJ,1682111592
539,caribou,46.8606,-68.012,13.04,44,0,4.47,US,1682111592
540,ceylanpinar,36.8472,40.05,14.58,58,1,2.55,TR,1682111592
541,santa elena de uairen,4.6167,-61.1333,24.61,74,88,0.63,VE,1682111592
542,kreuztal,50.9667,7.9833,11.2,88,75,0.45,DE,1682111592
543,jincheng,35.5022,112.8328,2.18,96,100,1.37,CN,1682111593
544,beitbridge,-22.2167,30.0,24.19,25,75,4.42,ZW,1682111593
545,savanna-la-mar,18.219,-78.1332,29.4,66,42,1.45,JM,1682111593
546,vice,-5.4167,-80.7833,28.41,66,99,3.33,PE,1682111593
547,sinop,41.7711,34.8709,7.37,92,100,0.62,TR,1682111593
548,pangoa,-12.1167,-73.0,25.83,70,81,1.3,PE,1682111593
549,kuching,1.55,110.3333,27.79,94,20,0.0,MY,1682111594
550,aur,8.1499,171.1687,27.83,79,41,6.66,MH,1682111594
551,kolokani,13.5728,-8.0339,32.58,13,84,3.08,ML,1682111594
552,conde,-7.2597,-34.9075,27.7,74,40,3.6,BR,1682111595
553,dampit,-8.2116,112.7493,21.36,98,80,1.34,ID,1682111595
554,oltinko'l,40.8011,72.1634,15.34,33,0,2.15,UZ,1682111595
555,taltal,-25.4,-70.4833,19.97,75,100,2.52,CL,1682111595
556,phan thiet,10.9333,108.1,26.39,89,100,1.26,VN,1682111596
557,jinghong,21.991,100.7341,22.96,48,56,0.92,CN,1682111596
558,alvand,36.3187,49.1678,10.58,69,70,2.98,IR,1682111596
559,san rafael,-34.6177,-68.3301,22.3,31,12,8.32,AR,1682111596
560,san agustin de valle fertil,-30.6335,-67.4682,21.74,40,100,2.44,AR,1682111596
561,cienfuegos,22.1461,-80.4356,30.08,54,39,5.14,CU,1682111597
562,yantarnyy,54.8717,19.9381,3.92,73,62,3.26,RU,1682111597
563,hobyo,5.3505,48.5268,28.7,72,100,6.58,SO,1682111597
564,kongsvinger,60.1905,11.9977,6.7,29,16,1.63,NO,1682111597
565,revda,56.801,59.9303,4.23,94,100,1.99,RU,1682111598
566,plettenberg bay,-34.0527,23.3716,13.79,66,100,1.77,ZA,1682111598
